{
  "type": "FeatureCollection",
  "features": [
    {
      "type": "Feature",
      "properties": {
        "name": "Den Gode Jord",
        "category": "food",
        "website": "https://www.dengodejord.no/",
        "address": "Sarpsborggata 12A",
        "city": "0468 Oslo"
      },
      "geometry": {
        "type": "Point",
        "coordinates": [
          10.759804,
          59.942189
        ]
      }
    },
    {
      "type": "Feature",
      "properties": {
        "name": "Ekte vare",
        "category": "food",
        "website": "https://ektevaredagligvare.no/",
        "address": "Dannevigsveien 18C",
        "city": "0463 Oslo"
      },
      "geometry": {
        "type": "Point",
        "coordinates": [
          10.752569,
          59.937344
        ]
      }
    },
    {
      "type": "Feature",
      "properties": {
        "name": "Frogner Helsekost",
        "category": "food",
        "website": "https://frognerhelsekost.no/",
        "address": "Frognerveien 6",
        "city": "0257 Oslo"
      },
      "geometry": {
        "type": "Point",
        "coordinates": [
          10.7165734,
          59.9157164
        ]
      }
    },
    {
      "type": "Feature",
      "properties": {
        "name": "Funky Fresh Foods",
        "category": "food",
        "website": "https://www.funkyfreshfoods.no/",
        "address": "Hausmanns gate 16",
        "city": "0182 Oslo"
      },
      "geometry": {
        "type": "Point",
        "coordinates": [
          10.754924,
          59.91882
        ]
      }
    },
    {
      "type": "Feature",
      "properties": {
        "name": "Godt Brød Bisletthjørnet ",
        "category": "food",
        "website": "https://www.godtbrod.no/Bakeverksted/Bisletthjornet",
        "address": "Thereses gate 52A",
        "city": "0168 Oslo"
      },
      "geometry": {
        "type": "Point",
        "coordinates": [
          10.73127,
          59.92592
        ]
      }
    },
    {
      "type": "Feature",
      "properties": {
        "name": "Godt Brød Grünerløkka",
        "category": "food",
        "website": "https://www.godtbrod.no/Bakeverksted/Grunerlokka",
        "address": "Thorvald Meyers gate 49",
        "city": "0555 Oslo"
      },
      "geometry": {
        "type": "Point",
        "coordinates": [
          10.758971,
          59.923965
        ]
      }
    },
    {
      "type": "Feature",
      "properties": {
        "name": "Godt Brød Munch Brygge ",
        "category": "food",
        "website": "https://www.godtbrod.no/Bakeverksted/munchbrygge",
        "address": "Operagata 29",
        "city": "0194 Oslo"
      },
      "geometry": {
        "type": "Point",
        "coordinates": [
          10.75692,
          59.90711
        ]
      }
    },
    {
      "type": "Feature",
      "properties": {
        "name": "Godt Brød Nydalen NY28 ",
        "category": "food",
        "website": "https://www.godtbrod.no/Bakeverksted/Nydalen-NY28",
        "address": "Nydalsveien 28",
        "city": "0484 Oslo"
      },
      "geometry": {
        "type": "Point",
        "coordinates": [
          10.76401,
          59.94973
        ]
      }
    },
    {
      "type": "Feature",
      "properties": {
        "name": "Godt Brød Nydalen Torgbygget ",
        "category": "food",
        "website": "https://www.godtbrod.no/Bakeverksted/Nydalen",
        "address": "Nydalsveien 33",
        "city": "0484 Oslo"
      },
      "geometry": {
        "type": "Point",
        "coordinates": [
          10.76579,
          59.94956
        ]
      }
    },
    {
      "type": "Feature",
      "properties": {
        "name": "Godt Brød Thereses gate",
        "category": "food",
        "website": "https://www.godtbrod.no/Bakeverksted/Bislett",
        "address": "Thereses gate 33",
        "city": "0354 Oslo"
      },
      "geometry": {
        "type": "Point",
        "coordinates": [
          10.73174,
          59.927649
        ]
      }
    },
    {
      "type": "Feature",
      "properties": {
        "name": "Kooperativet",
        "category": "food",
        "website": "https://kooperativet.no/",
        "address": "Vulkan 5",
        "city": "0178 Oslo"
      },
      "geometry": {
        "type": "Point",
        "coordinates": [
          10.752075,
          59.922164
        ]
      }
    },
    {
      "type": "Feature",
      "properties": {
        "name": "Krishnas Cuisine",
        "category": "food",
        "website": "https://www.krishnas-cuisine.no/",
        "address": "Sørkedalsveien 10",
        "city": "0369 Oslo"
      },
      "geometry": {
        "type": "Point",
        "coordinates": [
          10.709721,
          59.930321
        ]
      }
    },
    {
      "type": "Feature",
      "properties": {
        "name": "Kumi Operagata",
        "category": "food",
        "website": "https://www.kumi.no/",
        "address": "Operagata 71B",
        "city": "0194 Oslo"
      },
      "geometry": {
        "type": "Point",
        "coordinates": [
          10.75689,
          59.90678
        ]
      }
    },
    {
      "type": "Feature",
      "properties": {
        "name": "Kumi",
        "category": "food",
        "website": "https://www.kumi.no/",
        "address": "Schweigaards gate 56A",
        "city": "0656 Oslo"
      },
      "geometry": {
        "type": "Point",
        "coordinates": [
          10.769455,
          59.908429
        ]
      }
    },
    {
      "type": "Feature",
      "properties": {
        "name": "Landhandleriet",
        "category": "food",
        "website": "https://www.landhandleriet.no/",
        "address": "Øvre Smestadvei 1",
        "city": "0378 Oslo"
      },
      "geometry": {
        "type": "Point",
        "coordinates": [
          10.6732525,
          59.9420528
        ]
      }
    },
    {
      "type": "Feature",
      "properties": {
        "name": "Lille Tøyen Kolonial",
        "category": "food",
        "website": "http://lilletoyenkolonial.no/",
        "address": "Aud Schønemanns vei 9",
        "city": "0576 Oslo"
      },
      "geometry": {
        "type": "Point",
        "coordinates": [
          10.7842357,
          59.9207889
        ]
      }
    },
    {
      "type": "Feature",
      "properties": {
        "name": "Loving Hut",
        "category": "food",
        "website": "http://www.lovinghutoslo.no/",
        "address": "Bjerregaards gate 6",
        "city": "0172 Oslo"
      },
      "geometry": {
        "type": "Point",
        "coordinates": [
          10.741172,
          59.92349
        ]
      }
    },
    {
      "type": "Feature",
      "properties": {
        "name": "Mela Café",
        "category": "food",
        "website": "http://www.melacafe.no",
        "address": "Mariboes gate 8",
        "city": "0183 Oslo"
      },
      "geometry": {
        "type": "Point",
        "coordinates": [
          10.750499,
          59.91675
        ]
      }
    },
    {
      "type": "Feature",
      "properties": {
        "name": "Mølleren Sylvia",
        "category": "food",
        "website": "https://www.mollerensylvia.no/",
        "address": "Hegdehaugsveien 12",
        "city": "0167 Oslo"
      },
      "geometry": {
        "type": "Point",
        "coordinates": [
          10.73192,
          59.91999
        ]
      }
    },
    {
      "type": "Feature",
      "properties": {
        "name": "Nordvegan",
        "category": "food",
        "website": "https://www.nordvegan.no/",
        "address": "Kristian IVs gate 15B",
        "city": "0164 Oslo"
      },
      "geometry": {
        "type": "Point",
        "coordinates": [
          10.738139,
          59.915599
        ]
      }
    },
    {
      "type": "Feature",
      "properties": {
        "name": "Nøtteblanderen",
        "category": "food",
        "website": "https://notteblanderen.business.site/",
        "address": "Brugata 19",
        "city": "0186 Oslo"
      },
      "geometry": {
        "type": "Point",
        "coordinates": [
          10.757938,
          59.913757
        ]
      }
    },
    {
      "type": "Feature",
      "properties": {
        "name": "Oslo Raw Adamstuen",
        "category": "food",
        "website": "https://osloraw.no/",
        "address": "Ullevålsveien 82",
        "city": "0454 Oslo"
      },
      "geometry": {
        "type": "Point",
        "coordinates": [
          10.734202,
          59.932872
        ]
      }
    },
    {
      "type": "Feature",
      "properties": {
        "name": "Oslo Raw Bakery",
        "category": "food",
        "website": "https://osloraw.no/",
        "address": "Ullevålsveien 89a",
        "city": "0359 Oslo"
      },
      "geometry": {
        "type": "Point",
        "coordinates": [
          10.73426,
          59.93247
        ]
      }
    },
    {
      "type": "Feature",
      "properties": {
        "name": "Oslo Raw Frogner",
        "category": "food",
        "website": "https://osloraw.no/",
        "address": "Skovveien 16",
        "city": "0257 Oslo"
      },
      "geometry": {
        "type": "Point",
        "coordinates": [
          10.7174,
          59.91747
        ]
      }
    },
    {
      "type": "Feature",
      "properties": {
        "name": "Pink Fish - Grensen 17",
        "category": "food",
        "website": "https://www.pinkfish.no/",
        "address": "Grensen 17",
        "city": "0159 Oslo"
      },
      "geometry": {
        "type": "Point",
        "coordinates": [
          10.742441,
          59.914184
        ]
      }
    },
    {
      "type": "Feature",
      "properties": {
        "name": "Pink Fish - Munch Brygge ",
        "category": "food",
        "website": "https://www.pinkfish.no/",
        "address": "Operagata 35",
        "city": "0176 Oslo"
      },
      "geometry": {
        "type": "Point",
        "coordinates": [
          10.75573,
          59.90705
        ]
      }
    },
    {
      "type": "Feature",
      "properties": {
        "name": "Rest",
        "category": "food",
        "website": "https://www.restaurantrest.com/",
        "address": "Kirkegata 1-3",
        "city": "0153 Oslo"
      },
      "geometry": {
        "type": "Point",
        "coordinates": [
          10.742338,
          59.909048
        ]
      }
    },
    {
      "type": "Feature",
      "properties": {
        "name": "Røtter Frogner",
        "category": "food",
        "website": "https://www.roetter.no/",
        "address": "Colbjørnsens gate 12",
        "city": "0256 Oslo"
      },
      "geometry": {
        "type": "Point",
        "coordinates": [
          10.71636,
          59.91736
        ]
      }
    },
    {
      "type": "Feature",
      "properties": {
        "name": "Røtter Grünnerløkka",
        "category": "food",
        "website": "https://www.roetter.no/",
        "address": "Thorvald Meyers gate 46",
        "city": "0552 Oslo"
      },
      "geometry": {
        "type": "Point",
        "coordinates": [
          10.759413,
          59.923149
        ]
      }
    },
    {
      "type": "Feature",
      "properties": {
        "name": "Røtter St. Hanshaugen",
        "category": "food",
        "website": "https://www.roetter.no/",
        "address": "Ullevålsveien 39",
        "city": "0171 Oslo"
      },
      "geometry": {
        "type": "Point",
        "coordinates": [
          10.74012,
          59.9232
        ]
      }
    },
    {
      "type": "Feature",
      "properties": {
        "name": "Skatten Oslo",
        "category": "food",
        "website": "https://www.skattenoslo.no/",
        "address": "Hagegata 22-24",
        "city": "0653 Oslo"
      },
      "geometry": {
        "type": "Point",
        "coordinates": [
          10.775272,
          59.914744
        ]
      }
    },
    {
      "type": "Feature",
      "properties": {
        "name": "The Fragrance of the Heart - Majorstuen ",
        "category": "food",
        "website": "http://www.fragrance.no/",
        "address": "Majorstuveien 33",
        "city": "0367 Oslo"
      },
      "geometry": {
        "type": "Point",
        "coordinates": [
          10.71586,
          59.92745
        ]
      }
    },
    {
      "type": "Feature",
      "properties": {
        "name": "The Fragrance of the Heart",
        "category": "food",
        "website": "http://www.fragrance.no/",
        "address": "Fridtjof Nansens plass 2",
        "city": "0160 Oslo"
      },
      "geometry": {
        "type": "Point",
        "coordinates": [
          10.733466,
          59.912972
        ]
      }
    },
    {
      "type": "Feature",
      "properties": {
        "name": "Ur Kraft + Kolonial",
        "category": "food",
        "website": "http://www.urkolonial.no/",
        "address": "Ekebergveien 65",
        "city": "1181 Oslo"
      },
      "geometry": {
        "type": "Point",
        "coordinates": [
          10.77354,
          59.89828
        ]
      }
    },
    {
      "type": "Feature",
      "properties": {
        "name": "Vaquera Verde",
        "category": "food",
        "website": "https://www.vaqueraverde.no/",
        "address": "Waldemar Thranes gate 8",
        "city": "0171 Oslo"
      },
      "geometry": {
        "type": "Point",
        "coordinates": [
          10.73937,
          59.9234
        ]
      }
    },
    {
      "type": "Feature",
      "properties": {
        "name": "Vegan Loving Hut",
        "category": "food",
        "website": "http://veganlovinghut.no/",
        "address": "Fredensborgveien 29",
        "city": "0177 Oslo"
      },
      "geometry": {
        "type": "Point",
        "coordinates": [
          10.748152,
          59.919145
        ]
      }
    },
    {
      "type": "Feature",
      "properties": {
        "name": "Birk",
        "category": "bike",
        "website": "https://birk.no/",
        "address": "Marcus Thranes Gate 2",
        "city": "0473 Oslo"
      },
      "geometry": {
        "type": "Point",
        "coordinates": [
          10.75836,
          59.93321
        ]
      }
    },
    {
      "type": "Feature",
      "properties": {
        "name": "Cycleriet ",
        "category": "bike",
        "website": "http://www.cycleriet.no/",
        "address": "Ullevålsveien 37",
        "city": "0171 Oslo"
      },
      "geometry": {
        "type": "Point",
        "coordinates": [
          10.74056,
          59.92278
        ]
      }
    },
    {
      "type": "Feature",
      "properties": {
        "name": "Dælenenga Sykkelhub – D20",
        "category": "bike",
        "website": "https://www.facebook.com/D20sykkelhub/",
        "address": "Dælenenggata 20A",
        "city": "0567 Oslo"
      },
      "geometry": {
        "type": "Point",
        "coordinates": [
          10.7721,
          59.92654
        ]
      }
    },
    {
      "type": "Feature",
      "properties": {
        "name": "Eirik Street bike shop",
        "category": "bike",
        "website": "https://www.sykkelreparatøren.no/",
        "address": "Eiriks gate 4",
        "city": "0650 Oslo"
      },
      "geometry": {
        "type": "Point",
        "coordinates": [
          10.77167,
          59.91172
        ]
      }
    },
    {
      "type": "Feature",
      "properties": {
        "name": "Fagerborg Sykkelverksted",
        "category": "bike",
        "website": "https://www.facebook.com/fagerborgsykkel",
        "address": "Sorgenfrigata 39B",
        "city": "0365 Oslo"
      },
      "geometry": {
        "type": "Point",
        "coordinates": [
          10.72482,
          59.93013
        ]
      }
    },
    {
      "type": "Feature",
      "properties": {
        "name": "Felgen Sykkelverksted ",
        "category": "bike",
        "website": "https://www.felgen.no/",
        "address": "Maridalsveien 155",
        "city": "0461 Oslo"
      },
      "geometry": {
        "type": "Point",
        "coordinates": [
          10.75654,
          59.9377
        ]
      }
    },
    {
      "type": "Feature",
      "properties": {
        "name": "Glåmdals Sykkel & verksted",
        "category": "bike",
        "website": "https://www.facebook.com/GlaamdalSykkelVerksted/",
        "address": "Maridalsveien 15E",
        "city": "0178 Oslo"
      },
      "geometry": {
        "type": "Point",
        "coordinates": [
          10.75095,
          59.92258
        ]
      }
    },
    {
      "type": "Feature",
      "properties": {
        "name": "Majorstuen Sykkelverksted ",
        "category": "bike",
        "website": "http://www.majorstuensykkelverksted.no/#/",
        "address": "Hjelms gate 5",
        "city": "0355 Oslo"
      },
      "geometry": {
        "type": "Point",
        "coordinates": [
          10.72193,
          59.92471
        ]
      }
    },
    {
      "type": "Feature",
      "properties": {
        "name": "OK:sykkel",
        "category": "bike",
        "website": "https://oslokollega.no/ok-sykkel",
        "address": "Cecilie Thoresens vei 11",
        "city": "1153 Oslo"
      },
      "geometry": {
        "type": "Point",
        "coordinates": [
          10.80991,
          59.87627
        ]
      }
    },
    {
      "type": "Feature",
      "properties": {
        "name": "OsloVelo",
        "category": "bike",
        "website": "https://Oslovelo.com",
        "address": "Seilduksgata 23A",
        "city": "0553 Oslo"
      },
      "geometry": {
        "type": "Point",
        "coordinates": [
          10.760843,
          59.925418
        ]
      }
    },
    {
      "type": "Feature",
      "properties": {
        "name": "Peloton Oslo",
        "category": "bike",
        "website": "https://www.pelotonbar.no/",
        "address": "Torggata 35",
        "city": "0183 Oslo"
      },
      "geometry": {
        "type": "Point",
        "coordinates": [
          10.754377,
          59.917457
        ]
      }
    },
    {
      "type": "Feature",
      "properties": {
        "name": "RE:Sykkel",
        "category": "bike",
        "website": "https://www.resykkel.com/",
        "address": "Skovveien 13",
        "city": "0257 Oslo"
      },
      "geometry": {
        "type": "Point",
        "coordinates": [
          10.71844,
          59.91751
        ]
      }
    },
    {
      "type": "Feature",
      "properties": {
        "name": "Rouleur Oslo",
        "category": "bike",
        "website": "http://www.rouleuroslo.no/",
        "address": "Ullevålsveien 16A",
        "city": "0171 Oslo"
      },
      "geometry": {
        "type": "Point",
        "coordinates": [
          10.74021,
          59.923817
        ]
      }
    },
    {
      "type": "Feature",
      "properties": {
        "name": "Spinn",
        "category": "bike",
        "website": "https://spinn.no/",
        "address": "Kirkeveien 40",
        "city": "0368 Oslo"
      },
      "geometry": {
        "type": "Point",
        "coordinates": [
          10.71206,
          59.92721
        ]
      }
    },
    {
      "type": "Feature",
      "properties": {
        "name": "Everest Sko",
        "category": "clothes",
        "website": "http://www.everestsko.no/",
        "address": "Arbos gate 2",
        "city": "0368 Oslo"
      },
      "geometry": {
        "type": "Point",
        "coordinates": [
          10.71401,
          59.92842
        ]
      }
    },
    {
      "type": "Feature",
      "properties": {
        "name": "Fretex Alnabru",
        "category": "clothes",
        "website": "https://www.fretex.no/secondhand-gjenbruksbutikker/finn-naermeste-butikk/ostlandet/oslo/ole-deviks-vei-20",
        "address": "Ole Deviks vei 20",
        "city": "0666 Oslo"
      },
      "geometry": {
        "type": "Point",
        "coordinates": [
          10.827,
          59.91648
        ]
      }
    },
    {
      "type": "Feature",
      "properties": {
        "name": "Fretex Grønland",
        "category": "clothes",
        "website": "https://www.fretex.no/secondhand-gjenbruksbutikker/finn-naermeste-butikk/ostlandet/oslo/smalgangen-8",
        "address": "Smalgangen 8",
        "city": "0188 Oslo"
      },
      "geometry": {
        "type": "Point",
        "coordinates": [
          10.75974,
          59.91246
        ]
      }
    },
    {
      "type": "Feature",
      "properties": {
        "name": "Fretex Grünnerløkka",
        "category": "clothes",
        "website": "https://www.fretex.no/secondhand-gjenbruksbutikker/finn-naermeste-butikk/ostlandet/oslo/olaf-ryes-plass-3",
        "address": "Olaf Ryes plass 3",
        "city": "0552 Oslo"
      },
      "geometry": {
        "type": "Point",
        "coordinates": [
          10.7577381,
          59.9222603
        ]
      }
    },
    {
      "type": "Feature",
      "properties": {
        "name": "Fretex Majorstuen",
        "category": "clothes",
        "website": "https://www.fretex.no/secondhand-gjenbruksbutikker/finn-naermeste-butikk/ostlandet/oslo/kirkeveien-62",
        "address": "Kirkeveien 62",
        "city": "0368 Oslo"
      },
      "geometry": {
        "type": "Point",
        "coordinates": [
          10.71457,
          59.92876
        ]
      }
    },
    {
      "type": "Feature",
      "properties": {
        "name": "Fretex Ullevålsveien",
        "category": "clothes",
        "website": "https://www.fretex.no/secondhand-gjenbruksbutikker/finn-naermeste-butikk/ostlandet/oslo/ullevaalsveien-12",
        "address": "Ullevålsveien 12",
        "city": "0171 Oslo"
      },
      "geometry": {
        "type": "Point",
        "coordinates": [
          10.74084,
          59.92303
        ]
      }
    },
    {
      "type": "Feature",
      "properties": {
        "name": "Fretex Universitetsgata",
        "category": "clothes",
        "website": "https://www.fretex.no/secondhand-gjenbruksbutikker/finn-naermeste-butikk/ostlandet/oslo/universitetsgata-20",
        "address": "Universitetsgata 20",
        "city": "0162 Oslo"
      },
      "geometry": {
        "type": "Point",
        "coordinates": [
          10.737365,
          59.91538
        ]
      }
    },
    {
      "type": "Feature",
      "properties": {
        "name": "Livid Jeans Grünerløkka",
        "category": "clothes",
        "website": "https://www.lividjeans.com",
        "address": "Markveien 54",
        "city": "0554 Oslo"
      },
      "geometry": {
        "type": "Point",
        "coordinates": [
          10.75752,
          59.92047
        ]
      }
    },
    {
      "type": "Feature",
      "properties": {
        "name": "Livid Jeans Kvadraturen",
        "category": "clothes",
        "website": "https://www.lividjeans.com",
        "address": "Prinsens gate 3B",
        "city": "0152 Oslo"
      },
      "geometry": {
        "type": "Point",
        "coordinates": [
          10.74742,
          59.91052
        ]
      }
    },
    {
      "type": "Feature",
      "properties": {
        "name": "Nudie Jeans Repair Shop",
        "category": "clothes",
        "website": "https://www.nudiejeans.com/stores/nudie-jeans-repair-shop-hegdehaugsveien",
        "address": "Grønnegata 1A",
        "city": "0350 Oslo"
      },
      "geometry": {
        "type": "Point",
        "coordinates": [
          10.727915,
          59.921051
        ]
      }
    },
    {
      "type": "Feature",
      "properties": {
        "name": "Robot",
        "category": "clothes",
        "website": "https://robotoslo.com/collections/vintage-second-hand",
        "address": "Markveien 53",
        "city": "0554 Oslo"
      },
      "geometry": {
        "type": "Point",
        "coordinates": [
          10.75706,
          59.92075
        ]
      }
    },
    {
      "type": "Feature",
      "properties": {
        "name": "UFF Second Hand Løkka",
        "category": "clothes",
        "website": "https://uffnorge.org/uff-vintage/",
        "address": "Thorvald Meyers gate 74",
        "city": "0552 Oslo"
      },
      "geometry": {
        "type": "Point",
        "coordinates": [
          10.75969,
          59.91958
        ]
      }
    },
    {
      "type": "Feature",
      "properties": {
        "name": "UFF Vintage Heaven",
        "category": "clothes",
        "website": "https://uffnorge.org/uff-vintage/",
        "address": "Prinsens gate 2B",
        "city": "0152 Oslo"
      },
      "geometry": {
        "type": "Point",
        "coordinates": [
          10.74871,
          59.90999
        ]
      }
    },
    {
      "type": "Feature",
      "properties": {
        "name": "Velouria Vintage",
        "category": "clothes",
        "website": "https://velouriavintage.no/",
        "address": "Thorvald Meyers gate 34",
        "city": "0555 Oslo"
      },
      "geometry": {
        "type": "Point",
        "coordinates": [
          10.75954,
          59.92449
        ]
      }
    },
    {
      "type": "Feature",
      "properties": {
        "name": "Clas Ohlson verktøyutlån Alna Senter",
        "category": "tools",
        "website": "https://www.uteleiehosclas.no/",
        "address": "Strømsveien 245",
        "city": "0668 Oslo"
      },
      "geometry": {
        "type": "Point",
        "coordinates": [
          10.84767,
          59.926
        ]
      }
    },
    {
      "type": "Feature",
      "properties": {
        "name": "Clas Ohlson verktøyutlån Bogstadveien",
        "category": "tools",
        "website": "https://www.uteleiehosclas.no/",
        "address": "Bogstadveien 26",
        "city": "0355 Oslo"
      },
      "geometry": {
        "type": "Point",
        "coordinates": [
          10.72152,
          59.92599
        ]
      }
    },
    {
      "type": "Feature",
      "properties": {
        "name": "Clas Ohlson verktøyutlån Bryn Senter",
        "category": "tools",
        "website": "https://www.uteleiehosclas.no/",
        "address": "Østensjøveien 79",
        "city": "0667 Oslo"
      },
      "geometry": {
        "type": "Point",
        "coordinates": [
          10.82119,
          59.90342
        ]
      }
    },
    {
      "type": "Feature",
      "properties": {
        "name": "Clas Ohlson verktøyutlån CC Vest",
        "category": "tools",
        "website": "https://www.uteleiehosclas.no/",
        "address": "Lilleakerveien 16",
        "city": "0283 Oslo"
      },
      "geometry": {
        "type": "Point",
        "coordinates": [
          10.63688,
          59.91747
        ]
      }
    },
    {
      "type": "Feature",
      "properties": {
        "name": "Clas Ohlson verktøyutlån Lambertseter Senter",
        "category": "tools",
        "website": "https://www.uteleiehosclas.no/",
        "address": "Cecilie Thoresens vei 17",
        "city": "1153 Oslo"
      },
      "geometry": {
        "type": "Point",
        "coordinates": [
          10.81046,
          59.87491
        ]
      }
    },
    {
      "type": "Feature",
      "properties": {
        "name": "Clas Ohlson verktøyutlån Oslo City",
        "category": "tools",
        "website": "https://www.uteleiehosclas.no/",
        "address": "Stenersgata 1",
        "city": "0050 Oslo"
      },
      "geometry": {
        "type": "Point",
        "coordinates": [
          10.75154,
          59.91261
        ]
      }
    },
    {
      "type": "Feature",
      "properties": {
        "name": "Clas Ohlson verktøyutlån Storo",
        "category": "tools",
        "website": "https://www.uteleiehosclas.no/",
        "address": "Vitaminveien 7-9",
        "city": "0485 Oslo"
      },
      "geometry": {
        "type": "Point",
        "coordinates": [
          10.77539,
          59.94684
        ]
      }
    },
    {
      "type": "Feature",
      "properties": {
        "name": "Clas Ohlson verktøyutlån Stovner Senter",
        "category": "tools",
        "website": "https://www.uteleiehosclas.no/",
        "address": "Stovner Senter 3",
        "city": "0985 Oslo"
      },
      "geometry": {
        "type": "Point",
        "coordinates": [
          10.92452,
          59.96215
        ]
      }
    },
    {
      "type": "Feature",
      "properties": {
        "name": "Clas Ohlson verktøyutlån Torggata",
        "category": "tools",
        "website": "https://www.uteleiehosclas.no/",
        "address": "Torggata 6",
        "city": "0181 Oslo"
      },
      "geometry": {
        "type": "Point",
        "coordinates": [
          10.74685,
          59.91353
        ]
      }
    },
    {
      "type": "Feature",
      "properties": {
        "name": "Deichman Holmlia verktøyutlån",
        "category": "tools",
        "website": "https://deichman.no/bibliotekene/holmlia",
        "address": "Holmlia Senter vei 16",
        "city": "1255 Oslo"
      },
      "geometry": {
        "type": "Point",
        "coordinates": [
          10.79449,
          59.83508
        ]
      }
    },
    {
      "type": "Feature",
      "properties": {
        "name": "Deichman Torshov verktøyutlån",
        "category": "tools",
        "website": "https://deichman.no/bibliotekene/torshov",
        "address": "Sandakerveien 59",
        "city": "0477 Oslo"
      },
      "geometry": {
        "type": "Point",
        "coordinates": [
          10.76848,
          59.93844
        ]
      }
    },
    {
      "type": "Feature",
      "properties": {
        "name": "Deichman Tøyen verktøyutlån",
        "category": "tools",
        "website": "https://deichman.no/bibliotekene/tøyen",
        "address": "Hagegata 28",
        "city": "0653 Oslo"
      },
      "geometry": {
        "type": "Point",
        "coordinates": [
          10.77572,
          59.91426
        ]
      }
    },
    {
      "type": "Feature",
      "properties": {
        "name": "BUA Bjerke",
        "category": "sports",
        "website": "https://www.bua.io/utlansordninger/bua-bjerke",
        "address": "Brobekkveien 53",
        "city": "0598 Oslo"
      },
      "geometry": {
        "type": "Point",
        "coordinates": [
          10.82498,
          59.93686
        ]
      }
    },
    {
      "type": "Feature",
      "properties": {
        "name": "BUA Grünerløkka",
        "category": "sports",
        "website": "https://www.bua.io/utlansordninger/bua-grunerlokka",
        "address": "Bøkkerveien 4",
        "city": "0579 Oslo"
      },
      "geometry": {
        "type": "Point",
        "coordinates": [
          10.79435,
          59.9277
        ]
      }
    },
    {
      "type": "Feature",
      "properties": {
        "name": "BUA Hovseter",
        "category": "sports",
        "website": "https://www.bua.io/utlansordninger/bua-hovseter",
        "address": "Hovseterveien 88",
        "city": "0768 Oslo"
      },
      "geometry": {
        "type": "Point",
        "coordinates": [
          10.65397,
          59.95085
        ]
      }
    },
    {
      "type": "Feature",
      "properties": {
        "name": "BUA Mortensrud/Klemetsrud",
        "category": "sports",
        "website": "https://www.bua.io/utlansordninger/bua-mortensrud",
        "address": "Lofsrudveien 14",
        "city": "1281 Oslo"
      },
      "geometry": {
        "type": "Point",
        "coordinates": [
          10.8302,
          59.84625
        ]
      }
    },
    {
      "type": "Feature",
      "properties": {
        "name": "BUA Nordre Aker",
        "category": "sports",
        "website": "https://www.bua.io/utlansordninger/bua-nordre-aker",
        "address": "Maridalsveien 292",
        "city": "0872 Oslo"
      },
      "geometry": {
        "type": "Point",
        "coordinates": [
          10.76038,
          59.95281
        ]
      }
    },
    {
      "type": "Feature",
      "properties": {
        "name": "BUA Sagene",
        "category": "sports",
        "website": "https://www.bua.io/utlansordninger/bua-sagene",
        "address": "Sandakerveien 61",
        "city": "0477 Oslo"
      },
      "geometry": {
        "type": "Point",
        "coordinates": [
          10.7698,
          59.93903
        ]
      }
    },
    {
      "type": "Feature",
      "properties": {
        "name": "BUA Stovner",
        "category": "sports",
        "website": "https://www.bua.io/utlansordninger/bua-stovner",
        "address": "Inga Bjørnsons vei 1",
        "city": "0969 Oslo"
      },
      "geometry": {
        "type": "Point",
        "coordinates": [
          10.93005,
          59.96699
        ]
      }
    },
    {
      "type": "Feature",
      "properties": {
        "name": "BUA Østensjø",
        "category": "sports",
        "website": "https://www.bua.io/utlansordninger/bua-ostensjo",
        "address": "Enebakkveien 158 D",
        "city": "0680 Oslo"
      },
      "geometry": {
        "type": "Point",
        "coordinates": [
          10.80608,
          59.89464
        ]
      }
    },
    {
      "type": "Feature",
      "properties": {
        "name": "Bjørndal IF ",
        "category": "sports",
        "website": "https://bjorndal-if.no/category/37",
        "address": "Seterbråtveien 4",
        "city": "1271 Oslo"
      },
      "geometry": {
        "type": "Point",
        "coordinates": [
          10.83336,
          59.82425
        ]
      }
    },
    {
      "type": "Feature",
      "properties": {
        "name": "FRIGO",
        "category": "sports",
        "website": "http://www.frigo.no/utstyrslageret.html",
        "address": "Ensjøveien 7",
        "city": "0655 Oslo"
      },
      "geometry": {
        "type": "Point",
        "coordinates": [
          10.78498,
          59.91576
        ]
      }
    },
    {
      "type": "Feature",
      "properties": {
        "name": "Skattkammeret Frogner ",
        "category": "sports",
        "website": "https://kirkensbymisjon.no/skattkammeret/oslo/",
        "address": "Middelthuns gate 26",
        "city": "0368 Oslo"
      },
      "geometry": {
        "type": "Point",
        "coordinates": [
          10.70939,
          59.92699
        ]
      }
    },
    {
      "type": "Feature",
      "properties": {
        "name": "Skattkammeret Oslo",
        "category": "sports",
        "website": "https://kirkensbymisjon.no/skattkammeret/oslo/",
        "address": "Ullevålsveien 39",
        "city": "0171 Oslo"
      },
      "geometry": {
        "type": "Point",
        "coordinates": [
          10.74001,
          59.92329
        ]
      }
    },
    {
      "type": "Feature",
      "properties": {
        "name": "Utlånssentralen Holmlia sportsklubb",
        "category": "sports",
        "website": "http://www.holmliasport.no/p/39218/utlansssentralen",
        "address": "Nordåsveien 1B",
        "city": "1254 Oslo"
      },
      "geometry": {
        "type": "Point",
        "coordinates": [
          10.78827,
          59.83413
        ]
      }
    }
  ]
}
